,City,Cloudiness,Country,Date,Humidity,Lat,Lng,Max Temp,Wind Speed
0,mataura,82,NZ,1571550329,54,-46.19,168.86,59.0,10.0
1,rikitea,49,PF,1571550323,73,-23.12,-134.97,69.29,19.71
2,carnarvon,0,ZA,1571550420,18,-30.97,22.13,67.74,10.96
3,ontario,1,US,1571550572,52,34.07,-117.65,64.4,4.54
4,nagato,75,JP,1571550572,64,34.35,131.14,73.99,9.17
5,mackenzie,90,CA,1571550572,86,55.34,-123.09,33.8,4.7
6,cavan,2,IE,1571550573,90,53.99,-7.36,45.0,1.99
7,griffith,0,AU,1571550573,28,-34.29,146.06,69.8,12.75
8,bethel,75,US,1571550435,80,60.79,-161.76,30.2,5.82
9,sao filipe,86,CV,1571550388,87,14.9,-24.5,77.81,19.91
10,busselton,0,AU,1571550335,42,-33.64,115.35,84.0,12.48
11,salalah,0,OM,1571550457,40,17.01,54.1,87.8,1.12
12,touros,40,BR,1571550508,88,-5.2,-35.46,73.4,2.24
13,upernavik,100,GL,1571550347,80,72.79,-56.15,26.33,8.48
14,ushuaia,75,AR,1571550336,96,-54.81,-68.31,55.4,10.29
15,rabat,75,MA,1571550575,82,34.02,-6.83,64.0,13.87
16,puerto ayora,42,EC,1571550418,88,-0.74,-90.35,68.0,5.01
17,bluff,0,AU,1571550337,9,-23.58,149.07,88.88,11.99
18,escanaba,90,US,1571550575,93,45.75,-87.06,51.01,3.36
19,hobart,75,AU,1571550423,42,-42.88,147.33,64.4,14.99
20,sao joao da barra,98,BR,1571550471,94,-21.64,-41.05,69.24,0.2
21,pathein,13,MM,1571550462,56,16.78,94.73,91.36,2.48
22,guerrero negro,0,MX,1571550576,79,27.97,-114.04,67.65,17.85
23,nadym,97,RU,1571550577,63,65.53,72.51,26.63,20.58
24,namatanai,87,PG,1571550446,74,-3.66,152.44,82.54,10.4
25,kapaa,75,US,1571550448,83,22.08,-159.32,80.6,9.17
26,airai,5,TL,1571550329,33,-8.93,125.41,92.66,6.82
27,comodoro rivadavia,0,AR,1571550438,48,-45.87,-67.48,62.6,2.24
28,bocana de paiwas,100,NI,1571550578,98,12.79,-85.12,68.88,1.36
29,coquimbo,75,CL,1571550552,81,-29.95,-71.34,53.6,3.36
30,itoigawa,100,JP,1571550578,69,37.02,137.87,65.21,11.23
31,netivot,12,IL,1571550579,76,31.42,34.59,73.0,0.94
32,qaanaaq,0,GL,1571550420,48,77.48,-69.36,0.93,5.7
33,minas,75,UY,1571550579,100,-34.38,-55.24,44.6,3.36
34,sitka,5,US,1571550473,59,37.17,-99.65,54.0,11.99
35,kibondo,77,TZ,1571550580,74,-3.59,30.72,72.05,2.13
36,sisimiut,0,GL,1571550513,74,66.94,-53.67,32.05,14.05
37,punta arenas,0,CL,1571550409,61,-53.16,-70.91,48.2,8.05
38,cayhagan,100,PH,1571550580,68,9.67,122.43,84.23,2.3
39,new norfolk,75,AU,1571550326,42,-42.78,147.06,64.4,14.99
40,tasiilaq,100,GL,1571550448,90,65.61,-37.64,32.0,10.29
41,lebu,40,ET,1571550323,59,8.96,38.73,60.8,9.17
42,nata,0,BW,1571550582,16,-20.21,26.19,79.48,10.29
43,klaksvik,100,FO,1571550522,60,62.23,-6.59,41.0,8.05
44,clyde river,40,CA,1571550451,79,70.47,-68.59,19.4,6.93
45,pisco,0,PE,1571550582,82,-13.71,-76.2,62.6,5.82
46,port alfred,100,ZA,1571550346,97,-33.59,26.89,64.99,4.0
47,ust-karsk,100,RU,1571550583,96,52.71,118.82,36.46,4.38
48,grand gaube,75,MU,1571550441,65,-20.01,57.66,77.0,13.87
49,khatanga,96,RU,1571550361,75,71.98,102.47,6.26,11.77
50,puerto baquerizo moreno,100,EC,1571550584,81,-0.9,-89.6,68.75,14.5
51,hithadhoo,92,MV,1571550337,77,-0.6,73.08,82.0,14.79
52,manzhouli,66,CN,1571550584,31,49.6,117.43,39.57,29.26
53,bredasdorp,30,ZA,1571550341,77,-34.53,20.04,64.0,6.93
54,bijie,100,CN,1571550585,96,27.3,105.3,55.43,3.71
55,makakilo city,20,US,1571550349,83,21.35,-158.09,82.4,5.1
56,georgetown,20,GY,1571550497,100,6.8,-58.16,75.2,4.7
57,kralendijk,86,BQ,1571550586,83,12.15,-68.27,82.4,9.17
58,kjollefjord,100,NO,1571550586,63,70.95,27.35,32.5,7.9
59,yingkou,36,CN,1571550586,38,40.67,122.24,70.14,11.25
60,port elizabeth,1,US,1571550351,93,39.31,-74.98,53.01,3.98
61,san patricio,64,PY,1571550454,73,-26.98,-56.83,59.91,7.43
62,luena,19,AO,1571550587,64,-11.78,19.91,69.53,4.52
63,cape town,40,ZA,1571550328,87,-33.93,18.42,66.99,4.7
64,durant,1,US,1571550588,82,33.99,-96.37,63.0,7.02
65,rancagua,94,CL,1571550588,88,-34.17,-70.74,46.74,2.93
66,trairi,58,BR,1571550589,82,-3.28,-39.27,75.81,6.49
67,samarai,0,PG,1571550589,76,-10.62,150.67,78.08,8.57
68,hermanus,43,ZA,1571550589,90,-34.42,19.24,63.0,4.0
69,kadaya,100,RU,1571550590,88,50.93,119.29,36.28,17.98
70,itupiranga,0,BR,1571550590,83,-5.13,-49.33,78.8,4.7
71,tuktoyaktuk,5,CA,1571550426,79,69.44,-133.03,19.4,13.87
72,luderitz,0,NA,1571550339,80,-26.65,15.16,57.65,18.92
73,alibag,75,IN,1571550591,78,18.64,72.88,86.0,9.17
74,deer lake,90,CA,1571550591,87,49.18,-57.43,46.4,9.17
75,ust-nera,22,RU,1571550592,90,64.57,143.24,10.47,4.56
76,mahebourg,75,MU,1571550486,65,-20.41,57.7,77.0,13.87
77,albany,20,US,1571550327,86,42.65,-73.75,39.99,3.36
78,thompson,90,CA,1571550593,86,55.74,-97.86,37.4,5.82
79,pirovskoye,0,RU,1571550593,46,57.63,92.27,27.08,5.17
80,okhotsk,79,RU,1571550594,77,59.36,143.24,33.74,5.32
81,pangody,99,RU,1571550594,67,65.85,74.49,25.12,21.54
82,hilo,90,US,1571550360,88,19.71,-155.08,75.2,8.05
83,maceio,0,BR,1571550595,94,-9.67,-35.74,71.6,4.7
84,vanavara,69,RU,1571550595,49,60.35,102.28,26.52,5.17
85,lata,0,IN,1571550518,34,30.78,78.62,39.54,9.28
86,cidreira,100,BR,1571550595,77,-30.17,-50.22,58.33,3.83
87,okha,100,RU,1571550596,74,53.59,142.95,46.92,3.94
88,san rafael,100,AR,1571550597,45,-34.61,-68.33,60.53,13.11
89,barrow,0,AR,1571550437,83,-38.31,-60.23,50.36,10.27
90,zabol,0,IR,1571550597,21,31.03,61.49,69.8,6.93
91,arraial do cabo,90,BR,1571550464,88,-22.97,-42.02,71.52,15.75
92,krasnomayskiy,90,RU,1571550598,58,55.0,82.52,26.6,11.18
93,chokurdakh,43,RU,1571550386,96,70.62,147.9,2.53,8.1
94,ahipara,100,NZ,1571550599,70,-35.17,173.16,59.48,5.57
95,dingle,96,PH,1571550407,79,11.0,122.67,84.12,8.57
96,castro,90,CL,1571550336,100,-42.48,-73.76,44.6,4.7
97,yumen,4,CN,1571550599,15,40.29,97.04,58.02,2.42
98,avarua,34,CK,1571550319,88,-21.21,-159.78,73.4,8.05
99,ketchikan,75,US,1571550600,100,55.34,-131.65,42.8,4.7
100,bathsheba,20,BB,1571550373,74,13.22,-59.52,80.6,6.93
101,praia da vitoria,40,PT,1571550600,67,38.73,-27.07,62.6,9.55
102,opuwo,85,NA,1571550601,37,-18.06,13.84,77.68,1.23
103,narsaq,100,GL,1571550601,86,60.91,-46.05,41.0,3.36
104,vardo,1,US,1571550601,93,39.62,-77.74,53.6,2.04
105,abu zabad,55,SD,1571550602,58,12.35,29.25,83.19,4.99
106,vaini,75,IN,1571550326,94,15.34,74.49,78.8,5.82
107,ahvaz,75,IR,1571550602,39,31.32,48.68,82.4,4.7
108,adrar,0,DZ,1571550602,30,27.87,-0.29,69.8,10.29
109,aykhal,75,RU,1571550408,92,65.95,111.51,6.8,4.47
110,athni,80,IN,1571550603,76,16.73,75.07,77.43,13.22
111,coruripe,32,BR,1571550603,97,-10.12,-36.18,68.81,5.73
112,dikson,99,RU,1571550503,85,73.51,80.55,26.87,17.92
113,pacific grove,90,US,1571550604,87,36.62,-121.92,59.0,5.82
114,ciudad dario,40,NI,1571550604,83,12.73,-86.12,77.0,4.7
115,acapulco,75,MX,1571550604,94,16.86,-99.88,78.8,5.82
116,te anau,51,NZ,1571550605,76,-45.41,167.72,46.4,7.99
117,vanimo,92,PG,1571550545,71,-2.67,141.3,84.52,11.3
118,caconda,0,AO,1571550605,73,-13.73,15.06,68.23,4.52
119,limon,1,US,1571550605,50,39.26,-103.69,48.0,5.82
120,hasaki,75,JP,1571550459,64,35.73,140.83,73.99,11.41
121,puerto ayacucho,44,CO,1571550606,87,5.66,-67.63,74.75,1.77
122,dezhou,99,CN,1571550606,37,37.45,116.31,74.57,8.59
123,carauari,100,BR,1571550607,98,-4.88,-66.9,73.76,0.31
124,jamestown,0,AU,1571550416,21,-33.21,138.6,74.48,10.09
125,laguna,0,BZ,1571550607,94,16.17,-88.94,78.8,0.78
126,atuona,0,PF,1571550428,71,-9.8,-139.03,80.09,19.17
127,kabanjahe,53,ID,1571550607,65,3.1,98.49,86.37,2.53
128,ko samui,20,TH,1571550608,79,9.54,99.94,84.2,8.05
129,ilulissat,88,GL,1571550387,74,69.22,-51.1,30.2,6.93
130,longyearbyen,75,NO,1571550608,78,78.22,15.63,17.6,8.05
131,cabo san lucas,75,MX,1571550442,83,22.89,-109.91,75.0,12.75
132,antalaha,55,MG,1571550609,69,-14.9,50.28,75.12,2.73
133,talnakh,75,RU,1571550538,92,69.49,88.39,15.8,12.95
134,xiongzhou,0,CN,1571550609,34,32.34,118.83,81.0,6.71
135,kahului,1,US,1571550516,65,20.89,-156.47,80.6,10.29
136,la romana,40,DO,1571550610,94,18.43,-68.97,75.2,3.94
137,gornoye loo,2,RU,1571550610,82,43.72,39.61,64.4,2.24
138,turukhansk,74,RU,1571550551,55,65.8,87.96,18.57,7.94
139,faanui,22,PF,1571550355,81,-16.48,-151.75,80.0,10.92
140,anadyr,100,RU,1571550415,92,64.73,177.51,28.4,17.9
141,wairoa,28,NZ,1571550611,71,-39.04,177.43,57.99,1.5
142,saint-leu,0,RE,1571550611,50,-21.15,55.28,78.8,9.17
143,koutselion,90,GR,1571550611,100,39.59,20.91,52.0,3.11
144,broome,20,GB,1571550612,100,52.47,1.45,45.0,4.7
145,tsiroanomandidy,0,MG,1571550612,44,-18.77,46.05,77.46,5.14
146,ponta do sol,82,BR,1571550417,90,-20.63,-46.0,65.93,3.06
147,norman wells,75,CA,1571550330,92,65.28,-126.83,28.4,3.36
148,kudahuvadhoo,51,MV,1571550613,78,2.67,72.89,81.87,11.07
149,pestovo,20,RU,1571550613,87,55.36,37.98,53.6,6.71
150,ribeira grande,23,PT,1571550343,63,38.52,-28.7,62.92,6.71
151,aksay,80,KZ,1571550614,64,51.17,53.01,43.61,13.82
152,nikolskoye,20,RU,1571550441,87,59.7,30.79,48.0,8.95
153,los llanos de aridane,29,ES,1571550455,77,28.66,-17.92,69.8,2.24
154,neiafu,75,TO,1571550497,88,-18.65,-173.98,77.0,2.24
155,el alto,75,BO,1571550614,86,-16.5,-68.19,39.2,5.82
156,badia polesine,0,IT,1571550615,93,45.09,11.49,62.01,2.24
157,kattivakkam,90,IN,1571550615,94,13.22,80.32,80.6,4.7
158,cururupu,52,BR,1571550615,98,-1.82,-44.87,73.13,2.55
159,yeovil,90,GB,1571550616,87,50.94,-2.63,48.0,8.05
160,aklavik,75,CA,1571550408,85,68.22,-135.01,23.0,6.93
161,poum,0,MK,1571550616,93,41.28,20.71,44.6,3.36
162,vila franca do campo,20,PT,1571550617,72,37.72,-25.43,59.0,5.82
163,alihe,100,CN,1571550617,88,50.57,123.73,41.37,2.93
164,sesheke,0,NA,1571550617,24,-17.47,24.29,68.0,3.36
165,sikeston,1,US,1571550617,93,36.88,-89.59,55.0,2.48
166,puerto carreno,89,CO,1571550618,91,6.19,-67.49,75.23,2.28
167,san fernando,20,TT,1571550618,94,10.28,-61.46,77.0,7.83
168,east london,75,ZA,1571550354,88,-33.02,27.91,68.0,14.99
169,mar del plata,0,AR,1571550491,40,-46.43,-67.52,59.73,13.22
170,saint-philippe,1,CA,1571550350,93,45.36,-73.48,37.99,2.84
171,oriximina,74,BR,1571550619,85,-1.77,-55.87,78.27,4.14
172,davidson,28,CA,1571550619,68,51.26,-105.98,41.0,8.01
173,athabasca,98,CA,1571550620,92,54.72,-113.29,33.26,7.81
174,carutapera,24,BR,1571550620,83,-1.2,-46.02,79.1,6.38
175,bubaque,23,GW,1571550620,84,11.28,-15.83,81.24,13.18
176,mumford,100,GH,1571550621,97,5.26,-0.76,72.84,2.71
177,yima,100,CN,1571550416,54,34.75,111.87,65.1,9.26
178,darhan,13,MN,1571550621,39,49.49,105.92,41.57,7.78
179,tiksi,75,RU,1571550509,96,71.64,128.87,5.9,3.13
180,chichihualco,100,MX,1571550622,99,17.68,-99.65,59.16,2.48
181,bavly,100,RU,1571550622,78,54.4,53.24,37.79,9.28
182,balikpapan,97,ID,1571550622,85,-1.24,116.86,81.01,2.73
183,vyshneve,90,UA,1571550623,100,50.39,30.37,50.0,4.47
184,mount isa,0,AU,1571550623,9,-20.73,139.49,95.0,20.8
185,chuy,100,UY,1571550624,84,-33.69,-53.46,51.78,7.25
186,baiao,72,BR,1571550624,98,-2.79,-49.67,72.03,1.99
187,hamilton,75,CA,1571550624,93,43.26,-79.87,50.0,6.93
188,maniitsoq,0,GL,1571550625,58,65.42,-52.9,33.72,7.49
189,khasan,0,RU,1571550625,52,42.43,130.64,64.05,8.52
190,borogontsy,100,RU,1571550625,89,62.67,131.17,32.21,1.07
191,sur,0,OM,1571550625,23,22.57,59.53,90.41,4.56
192,marzuq,7,YE,1571550626,23,14.4,46.47,75.23,4.76
193,iqaluit,20,CA,1571550477,73,63.75,-68.52,24.8,6.93
194,maracaibo,75,CO,1571550626,93,3.41,-75.78,66.2,2.73
195,puerto escondido,50,MX,1571550538,89,15.86,-97.07,74.46,3.53
196,la ronge,90,CA,1571550627,94,55.1,-105.3,32.0,2.24
197,isakly,93,RU,1571550627,74,54.13,51.53,41.19,7.85
198,bonao,40,DO,1571550628,94,18.94,-70.41,77.0,4.7
199,ribeira brava,75,PT,1571550628,59,32.65,-17.07,66.2,6.93
200,college,75,US,1571550538,92,64.86,-147.8,32.0,2.93
201,yataity del norte,38,PY,1571550629,89,-24.85,-56.36,67.69,2.86
202,nanortalik,100,GL,1571550479,83,60.14,-45.24,40.55,3.0
203,loncoche,90,CL,1571550629,87,-39.37,-72.63,53.6,6.93
204,pangnirtung,95,CA,1571550486,51,66.15,-65.72,16.16,2.46
205,cabittaogan,20,PH,1571550630,70,17.58,120.37,87.8,16.11
206,qinggang,0,CN,1571550630,58,28.25,121.28,79.0,5.99
207,saint-pierre,100,FR,1571550344,100,48.95,4.24,53.6,8.05
208,frederikshavn,34,DK,1571550631,96,57.44,10.53,46.99,4.0
209,roebourne,17,AU,1571550631,13,-20.77,117.15,105.02,17.67
210,kolyvan,90,RU,1571550631,58,55.31,82.74,26.6,11.18
211,ajdabiya,2,LY,1571550631,77,30.75,20.22,72.24,9.78
212,gat,55,SN,1571550541,88,14.69,-16.54,78.8,11.41
213,moranbah,58,AU,1571550632,33,-22.0,148.04,87.31,15.05
214,tuatapere,47,NZ,1571550632,55,-46.13,167.69,57.99,8.99
215,batagay,97,RU,1571550632,89,67.65,134.64,18.71,3.04
216,sept-iles,5,CA,1571550633,65,50.2,-66.38,41.0,8.05
217,qaqortoq,100,GL,1571550554,86,60.72,-46.03,41.0,3.36
218,saskylakh,4,RU,1571550426,87,71.97,114.09,-2.46,4.74
219,la paz,5,MX,1571550633,78,24.15,-110.32,73.4,9.17
220,flinders,0,AU,1571550558,34,-34.58,150.85,69.01,12.75
221,teya,75,MX,1571550634,78,21.05,-89.07,82.4,5.82
222,moron,19,HT,1571550634,77,18.56,-74.26,80.16,7.34
223,neuquen,100,AR,1571550635,40,-38.95,-68.06,67.62,9.55
224,sembakung,95,ID,1571550635,66,3.82,117.25,87.94,5.19
225,contamana,98,PE,1571550635,98,-7.35,-75.01,70.98,0.6
226,northam,40,AU,1571550636,50,-31.65,116.67,78.8,16.11
227,pengcheng,100,CN,1571550636,39,36.43,114.17,70.28,9.46
228,salinopolis,46,BR,1571550636,79,-0.61,-47.36,81.53,15.01
229,selma,22,US,1571550637,82,32.41,-87.02,62.6,4.7
230,camalu,0,MX,1571550637,10,30.85,-116.07,55.0,7.0
231,honningsvag,99,NO,1571550638,68,70.98,25.97,32.3,11.88
232,chincha alta,0,PE,1571550638,82,-13.42,-76.13,62.6,5.82
233,vila velha,40,BR,1571550455,78,-3.71,-38.6,79.0,9.17
234,kijang,75,KR,1571550639,43,35.24,129.21,73.4,6.93
235,kodiak,1,US,1571550372,100,39.95,-94.76,48.99,3.36
236,bambous virieux,75,MU,1571550452,65,-20.34,57.76,77.0,13.87
237,carlyle,1,CA,1571550640,79,49.63,-102.27,33.8,5.82
238,port blair,100,IN,1571550465,76,11.67,92.75,84.84,19.55
239,mildura,0,AU,1571550641,21,-34.18,142.16,72.0,11.41
240,kungurtug,100,RU,1571550641,48,50.6,97.53,33.71,3.18
241,torbay,90,CA,1571550492,100,47.66,-52.73,48.0,20.8
242,guadalupe y calvo,0,MX,1571550642,75,26.09,-106.96,51.49,5.44
243,aksarka,100,RU,1571550426,66,66.56,67.8,27.42,18.92
244,bertea,8,RO,1571550642,69,45.23,25.87,62.01,4.0
245,taltal,18,CL,1571550467,90,-25.41,-70.49,47.03,3.4
246,smithers,90,CA,1571550467,88,54.78,-127.17,33.8,1.74
247,mayo,90,CA,1571550643,92,63.59,-135.9,28.4,3.36
248,crotone,0,IT,1571550643,50,39.09,17.12,64.34,1.66
249,antofagasta,90,CL,1571550644,72,-23.65,-70.4,59.0,10.29
250,aripuana,99,BR,1571550644,94,-9.17,-60.63,71.54,1.36
251,rocha,100,UY,1571550644,92,-34.48,-54.34,41.75,1.57
252,finnsnes,58,NO,1571550644,92,69.23,17.98,28.4,18.34
253,port shepstone,6,ZA,1571550645,45,-30.74,30.45,81.71,5.44
254,yellowknife,40,CA,1571550437,92,62.45,-114.38,28.0,8.05
255,tiznit,0,MA,1571550553,89,29.7,-9.73,65.49,8.16
256,kaitangata,88,NZ,1571550526,83,-46.28,169.85,51.01,3.0
257,saint anthony,40,US,1571550564,80,43.97,-111.68,33.8,10.29
258,certaldo,20,IT,1571550646,100,43.55,11.04,66.0,1.12
259,qasigiannguit,94,GL,1571550646,74,68.82,-51.19,30.2,6.93
260,thongwa,40,MM,1571550647,56,16.76,96.52,93.2,4.7
261,aloleng,0,PH,1571550647,67,16.13,119.78,84.0,5.26
262,chapais,1,CA,1571550349,91,49.78,-74.86,32.0,2.24
263,lompoc,90,US,1571550423,93,34.64,-120.46,62.01,13.87
264,ambilobe,14,MG,1571550648,33,-13.19,49.05,88.8,12.01
265,palana,93,RU,1571550648,67,59.08,159.95,34.48,7.72
266,gushikawa,75,JP,1571550649,88,26.35,127.87,75.2,9.17
267,kruisfontein,87,ZA,1571550439,77,-34.0,24.73,65.35,15.79
268,itamaraju,61,BR,1571550649,98,-17.04,-39.53,66.45,1.63
269,agadez,0,NE,1571550480,32,16.97,7.99,80.6,9.17
270,severo-kurilsk,0,RU,1571550343,73,50.68,156.12,40.55,16.42
271,kavaratti,100,IN,1571550650,76,10.57,72.64,82.86,16.91
272,mount hagen,78,PG,1571550651,98,-5.86,144.23,56.46,3.04
273,payo,100,ID,1571550651,39,-3.75,103.64,86.82,6.29
274,sinnamary,61,GF,1571550652,80,5.38,-52.96,81.39,13.6
275,saint george,40,GR,1571550359,93,39.45,22.34,59.0,5.82
276,henties bay,0,NA,1571550495,96,-22.12,14.28,57.99,3.0
277,wageningen,90,NL,1571550446,100,51.98,5.66,51.01,2.24
278,mossendjo,94,CG,1571550654,98,-2.95,12.72,71.58,1.23
279,provideniya,24,RU,1571550340,82,64.42,-173.23,20.58,5.79
280,saldanha,86,PT,1571550376,88,41.42,-6.55,45.64,8.99
281,cockburn town,97,TC,1571550656,80,21.46,-71.14,82.77,16.84
282,bokovskaya,49,RU,1571550656,72,49.23,41.83,56.85,6.51
283,kargopol,96,RU,1571550657,89,61.51,38.95,46.43,6.78
284,mecca,0,SA,1571550657,40,21.43,39.83,90.8,5.48
285,horasan,86,TR,1571550658,45,40.04,42.16,56.91,2.91
286,hambantota,75,LK,1571550517,100,6.12,81.12,78.8,2.24
287,mogadishu,75,SO,1571550658,69,2.04,45.34,80.6,9.17
288,simao,42,CN,1571550659,46,22.76,100.79,81.93,3.8
289,north bend,90,US,1571550660,93,43.41,-124.22,54.0,8.05
290,sovetskaya gavan,100,RU,1571550660,58,48.97,140.29,50.55,2.82
291,esperance,42,AU,1571550428,22,-33.86,121.89,89.6,12.75
292,moa,64,CU,1571550661,97,20.66,-74.95,69.17,4.21
293,gallup,1,US,1571550661,25,35.53,-108.74,51.8,8.05
294,livingston,1,US,1571550662,100,40.8,-74.31,55.4,0.67
295,vadso,65,NO,1571550662,85,70.07,29.75,21.2,11.41
296,kaoma,0,ZM,1571550543,15,-14.8,24.8,79.39,8.41
297,cassilandia,100,BR,1571550663,85,-19.11,-51.73,71.51,6.06
298,pevek,99,RU,1571550455,81,69.7,170.27,26.63,15.05
299,fenoarivo atsinanana,80,MG,1571550663,60,-17.38,49.41,73.2,4.16
300,kavieng,33,PG,1571550422,73,-2.57,150.8,84.5,12.77
301,vestmannaeyjar,88,IS,1571550552,71,63.44,-20.27,45.32,10.76
302,nouadhibou,1,MR,1571550420,82,20.93,-17.03,68.0,17.22
303,marawi,87,PH,1571550500,77,8.0,124.29,84.99,7.0
304,varzea da palma,78,BR,1571550664,36,-17.6,-44.73,79.46,4.18
305,matamoros,1,US,1571550443,88,25.87,-97.51,80.6,9.17
306,tomatlan,100,MX,1571550665,88,19.93,-105.25,79.12,12.57
307,xuanhua,0,CN,1571550665,17,40.61,115.04,57.39,14.5
308,gigmoto,100,PH,1571550665,72,13.78,124.39,83.82,8.52
309,muros,40,ES,1571550546,100,42.77,-9.06,53.01,2.24
310,alofi,47,NU,1571550439,83,-19.06,-169.92,78.8,9.17
311,nesna,12,NO,1571550666,55,66.2,13.02,34.98,12.86
312,black river,20,JM,1571550666,83,18.03,-77.85,78.8,3.36
313,rundu,0,NA,1571550667,12,-17.91,19.77,79.25,3.91
314,male,40,UA,1571550549,74,50.74,33.7,53.83,6.98
315,trelew,35,AR,1571550667,30,-43.25,-65.31,70.03,20.74
316,novaya zaimka,0,RU,1571550667,49,56.49,66.92,27.44,3.76
317,sheffield lake,1,US,1571550668,66,41.49,-82.1,54.0,5.82
318,pochutla,72,MX,1571550385,92,15.74,-96.47,77.0,4.05
319,porto velho,20,BR,1571550668,94,-8.75,-63.87,75.2,1.9
320,butaritari,84,KI,1571550331,74,3.07,172.79,84.86,10.07
321,nara,75,JP,1571550669,53,34.68,135.8,77.0,11.41
322,totma,100,RU,1571550669,96,59.98,42.76,49.15,9.31
323,saint-augustin,5,CA,1571550556,84,45.63,-73.98,37.99,1.34
324,komatipoort,0,MZ,1571550670,28,-25.43,31.96,83.67,3.87
325,junction city,1,US,1571550670,81,39.03,-96.83,51.01,8.79
326,sola,72,TZ,1571550670,60,-3.17,33.8,76.01,2.98
327,talara,47,PE,1571550670,87,-4.58,-81.27,65.04,19.71
328,yanam,40,IN,1571550671,66,16.73,82.22,89.6,8.05
329,oistins,20,BB,1571550671,74,13.07,-59.53,80.6,6.93
330,half moon bay,40,US,1571550672,87,37.46,-122.43,57.2,11.81
331,izhevskoye,61,RU,1571550672,88,54.56,40.87,50.72,8.12
332,coahuayana,99,MX,1571550673,95,18.62,-100.35,70.39,1.99
333,canto do buriti,74,BR,1571550673,54,-8.11,-42.94,79.3,3.4
334,santiago,44,PH,1571550674,65,16.69,121.54,84.12,3.89
335,ballina,83,IE,1571550475,90,54.11,-9.15,51.01,5.01
336,gimli,28,CA,1571550674,91,50.63,-96.99,41.0,1.01
337,barentu,8,ER,1571550675,44,15.11,37.59,83.78,10.18
338,nantucket,1,US,1571550469,93,41.28,-70.1,42.01,1.88
339,fukue,75,JP,1571550676,60,35.03,136.69,75.2,13.87
340,tarbes,75,FR,1571550677,93,43.23,0.08,59.0,3.36
341,kangaatsiaq,83,GL,1571550677,80,68.31,-53.46,33.36,13.98
342,katangli,100,RU,1571550677,75,51.71,143.23,46.63,3.27
343,mahajanga,0,MG,1571550678,42,-15.72,46.32,82.4,14.99
344,raudeberg,32,NO,1571550365,80,61.99,5.14,39.2,6.93
345,riyadh,0,SA,1571550499,32,24.63,46.72,82.4,8.59
346,bajram curri,0,AL,1571550678,76,42.36,20.08,55.4,2.24
347,mattawa,75,CA,1571550679,70,46.32,-78.7,43.0,10.29
348,dzilam gonzalez,60,MX,1571550679,90,21.28,-88.93,81.0,1.99
349,shahreza,0,IR,1571550679,27,32.01,51.87,62.6,2.46
350,magadan,12,RU,1571550680,67,59.56,150.8,35.0,4.54
351,ust-tsilma,100,RU,1571550680,93,65.44,52.15,36.82,8.7
352,fatehgarh,100,IN,1571550681,33,27.36,79.63,87.18,6.2
353,cherskiy,66,RU,1571550344,91,68.75,161.3,6.15,4.5
354,key west,1,US,1571550681,93,47.93,-96.78,39.99,5.82
355,karachi,0,PK,1571550682,29,24.87,67.03,89.6,10.29
356,hami,1,CN,1571550528,17,42.84,93.51,55.2,3.69
357,mount gambier,90,AU,1571550682,66,-37.83,140.78,55.4,11.41
358,camacha,20,PT,1571550682,59,33.08,-16.33,66.2,12.75
359,ancud,90,CL,1571550501,100,-41.87,-73.83,44.6,4.7
360,buy,100,RU,1571550684,96,58.48,41.53,51.18,9.57
361,dibulla,99,CO,1571550684,83,11.27,-73.31,81.12,12.73
362,vilhena,100,BR,1571550513,98,-12.74,-60.15,69.2,1.77
363,nome,1,US,1571550472,94,30.04,-94.42,78.01,3.36
364,leningradskiy,100,RU,1571550432,92,69.38,178.42,28.65,25.77
365,keskin,44,TR,1571550685,68,39.67,33.62,57.99,7.74
366,srednekolymsk,100,RU,1571550686,83,67.46,153.71,14.79,3.36
367,sabya,0,SA,1571550686,70,17.15,42.62,87.8,4.7
368,ocean city,75,US,1571550686,93,30.44,-86.61,66.2,4.74
369,puri,100,ID,1571550687,18,-7.54,112.45,101.04,20.51
370,saint-michel-des-saints,3,CA,1571550687,7,46.68,-73.92,37.99,1.9
371,olinda,75,AU,1571550687,54,-37.84,145.39,62.01,16.11
372,ocosingo,100,MX,1571550688,91,16.91,-92.09,62.65,3.51
373,lavrentiya,26,RU,1571550546,92,65.58,-170.99,19.22,2.19
374,onda,90,ES,1571550688,77,39.96,-0.26,69.8,8.05
375,sulangan,100,PH,1571550689,74,11.14,123.72,84.41,8.9
376,aguimes,20,ES,1571550689,68,27.91,-15.45,71.6,13.87
377,victor harbor,20,AU,1571550689,51,-35.55,138.62,66.0,16.11
378,san antonio,90,CL,1571550689,87,-33.58,-71.61,53.6,3.36
379,quelimane,40,MZ,1571550690,88,-17.88,36.89,78.8,4.7
380,murakami,75,JP,1571550690,64,38.29,139.58,68.0,10.29
381,itarema,60,BR,1571550425,81,-2.92,-39.92,77.7,6.53
382,colac,59,AU,1571550691,81,-38.34,143.59,61.0,3.0
383,murgab,0,TM,1571550540,36,37.5,61.97,64.4,4.7
384,carbonear,90,CA,1571550691,100,47.73,-53.24,48.0,20.8
385,buala,46,SB,1571550692,76,-8.15,159.59,83.15,9.04
386,kaeo,100,NZ,1571550427,72,-35.1,173.78,62.01,4.0
387,hirara,75,JP,1571550449,83,24.8,125.28,78.8,16.11
388,yenagoa,83,NG,1571550692,95,4.92,6.26,73.59,4.52
389,viedma,20,AR,1571550544,55,-40.81,-62.99,61.25,16.69
390,beloha,0,MG,1571550441,25,-25.17,45.06,86.5,4.79
391,fortuna,1,US,1571550555,93,40.6,-124.16,51.01,6.93
392,praia,0,BR,1571550694,64,-20.25,-43.81,71.6,2.24
393,kavali,99,IN,1571550694,60,14.91,79.99,88.12,10.58
394,igarka,100,RU,1571550695,71,67.47,86.57,20.19,15.5
395,boden,0,SE,1571550695,92,65.83,21.69,21.2,8.05
396,phalombe,37,MW,1571550695,49,-15.81,35.65,81.08,7.76
397,meulaboh,57,ID,1571550696,77,4.14,96.13,82.04,5.28
398,nyurba,100,RU,1571550696,69,63.29,118.35,28.45,3.18
399,lagoa,0,PT,1571550547,93,37.14,-8.45,57.0,5.82
400,tautira,40,PF,1571550417,83,-17.73,-149.15,78.8,3.36
401,kinkala,20,CG,1571550697,100,-4.35,14.75,69.8,2.24
402,ozinki,43,RU,1571550698,79,51.2,49.73,45.64,6.73
403,lorengau,88,PG,1571550698,77,-2.02,147.27,83.22,6.87
404,victoria,75,BN,1571550492,62,5.28,115.24,89.6,3.36
405,deputatskiy,94,RU,1571550699,95,69.3,139.9,11.78,1.77
406,tabursuq,0,TN,1571550700,63,36.46,9.25,75.2,3.36
407,yulara,93,AU,1571550700,14,-25.24,130.99,95.0,11.41
408,polasara,20,IN,1571550701,68,19.7,84.82,83.93,4.18
409,bonavista,91,CA,1571550465,87,48.65,-53.11,46.99,7.0
410,omsukchan,100,RU,1571550702,81,62.53,155.8,14.05,4.07
411,nemuro,40,JP,1571550513,58,43.32,145.57,59.0,10.29
412,coihaique,0,CL,1571550505,66,-45.58,-72.07,50.0,8.05
413,moussoro,92,TD,1571550703,56,13.64,16.49,81.91,8.7
414,alma,75,US,1571550704,22,39.28,-106.06,46.4,25.28
415,namibe,46,AO,1571550423,87,-15.19,12.15,68.52,6.78
416,rio gallegos,40,AR,1571550334,66,-51.62,-69.22,50.0,6.93
417,charleston,90,US,1571550709,94,32.79,-79.94,77.0,10.29
418,cardston,90,CA,1571550710,69,49.2,-113.32,35.6,6.93
419,byron bay,60,AU,1571550710,56,-28.65,153.62,75.2,21.92
420,waingapu,12,ID,1571550522,30,-9.65,120.26,92.44,14.92
421,springfield,20,US,1571550711,87,37.22,-93.29,59.0,3.36
422,mikhaylovka,40,RU,1571550485,46,52.96,103.29,40.51,8.55
423,atasu,99,KZ,1571550713,70,48.68,71.64,33.0,20.65
424,faya,0,SA,1571550550,29,18.39,42.45,68.0,0.49
425,gloversville,1,US,1571550714,100,43.05,-74.34,39.99,5.82
426,teguldet,6,RU,1571550715,46,57.31,88.17,26.38,4.61
427,zhuanghe,37,CN,1571550715,49,39.7,122.97,68.95,12.8
428,orshanka,81,RU,1571550716,88,56.92,47.89,37.07,12.03
429,grindavik,75,IS,1571550499,81,63.84,-22.43,42.8,9.17
430,hovd,75,NO,1571550717,64,63.83,10.7,39.99,16.11
431,lasa,20,CY,1571550717,73,34.92,32.53,69.8,6.93
432,omboue,100,GA,1571550447,86,-1.57,9.26,77.36,7.76
433,yining,0,CN,1571550396,30,29.04,114.56,82.68,1.54
434,buraydah,0,SA,1571550719,46,26.33,43.97,73.4,4.7
435,biskupiec,99,PL,1571550719,93,53.87,20.96,52.73,8.61
436,adwa,41,ET,1571550720,47,14.16,38.9,70.89,13.94
437,myslenice,41,PL,1571550720,100,49.83,19.94,53.01,1.12
438,phillaur,22,IN,1571550720,22,31.02,75.78,87.22,7.43
439,dubbo,0,AU,1571550722,12,-32.25,148.6,75.2,11.41
440,amahai,100,ID,1571550468,76,-3.31,129.0,81.03,11.54
441,zonguldak,75,TR,1571550722,100,41.25,31.83,55.4,3.36
442,onega,100,RU,1571550723,96,63.91,38.09,42.83,8.25
443,santa maria,0,BR,1571550723,47,-16.02,-48.01,75.2,2.24
444,la palma,100,CO,1571550725,99,5.36,-74.39,67.01,0.98
445,opava,8,CZ,1571550725,93,49.94,17.9,50.0,2.24
446,mahon,40,IE,1571550728,87,51.89,-8.4,46.0,13.87
447,juba,90,EE,1571550728,100,57.82,26.93,46.0,2.24
448,palmer,20,AU,1571550729,51,-34.85,139.16,69.01,16.11
449,jizan,0,SA,1571550729,70,16.89,42.56,87.8,4.7
450,ornskoldsvik,100,SE,1571550729,73,63.29,18.72,32.0,6.93
451,ankang,97,CN,1571550730,89,32.73,108.99,57.41,1.63
452,urengoy,97,RU,1571550730,60,65.96,78.37,25.93,18.88
453,durusu,75,TR,1571550730,77,37.53,40.83,64.4,2.24
454,sonoita,1,US,1571550731,33,31.68,-110.66,64.99,11.41
455,kenai,75,US,1571550731,100,60.55,-151.26,41.0,4.7
456,san luis,15,AR,1571550731,43,-33.3,-66.34,64.22,16.35
457,englewood,1,US,1571550732,28,39.65,-104.99,48.0,10.2
458,corrente,78,BR,1571550732,36,-17.45,-44.68,79.46,4.18
459,floresta,4,BR,1571550732,83,-8.6,-38.57,71.0,8.14
460,maldonado,75,UY,1571550733,100,-34.91,-54.96,44.6,3.36
461,noyabrsk,76,RU,1571550733,50,63.2,75.45,28.0,17.83
462,linqiong,100,CN,1571550734,72,30.42,103.46,75.0,4.47
463,richards bay,56,ZA,1571550525,85,-28.77,32.06,72.42,6.4
464,bestobe,0,KZ,1571550734,72,52.5,73.1,25.75,11.32
465,berlevag,100,NO,1571550355,60,70.86,29.09,33.15,7.23
466,constitucion,38,MX,1571550494,70,23.99,-104.67,63.0,5.99
467,maningrida,99,AU,1571550735,48,-12.05,134.23,90.33,13.2
468,brainerd,1,US,1571550736,72,46.36,-94.2,44.6,5.66
469,kutum,45,SD,1571550514,38,14.2,24.66,79.82,8.9
470,zhigansk,94,RU,1571550736,93,66.77,123.37,16.7,5.23
471,scarborough,100,GB,1571550736,87,54.28,-0.41,48.99,9.17
472,gamba,23,CN,1571550737,35,28.28,88.52,40.73,8.34
473,havelock,90,US,1571550737,93,34.88,-76.9,72.0,5.82
474,labuhan,83,ID,1571550417,53,-2.54,115.51,90.5,2.24
475,tessalit,0,ML,1571550531,27,20.2,1.01,77.39,5.37
476,gobo,75,JP,1571550738,53,33.89,135.15,75.99,11.41
477,cavalcante,36,BR,1571550738,56,-13.79,-47.46,69.8,3.33
478,uyar,99,RU,1571550739,81,55.81,94.33,27.51,6.08
479,ust-koksa,100,RU,1571550739,89,50.27,85.62,27.6,9.46
480,porto novo,75,BR,1571550740,82,-23.68,-45.44,64.4,8.05
481,tra vinh,98,VN,1571550741,69,9.93,106.35,87.09,11.65
482,broken hill,0,AU,1571550741,24,-31.97,141.45,68.0,13.87
483,sarangani,63,PH,1571550741,66,5.4,125.46,84.47,3.29
484,polyarnyy,40,RU,1571550742,92,69.2,33.45,23.0,4.47
485,lazarev,100,RU,1571550742,87,52.23,141.51,43.61,2.01
486,port lincoln,0,AU,1571550389,72,-34.72,135.86,55.88,10.87
487,fairbanks,75,US,1571550743,92,64.84,-147.72,32.0,2.93
488,tiruchchendur,40,IN,1571550743,74,8.48,78.12,86.0,5.82
489,ambon,0,FR,1571550530,100,47.55,-2.56,53.01,10.29
490,potchefstroom,0,ZA,1571550744,22,-26.71,27.1,78.06,2.42
491,langxiang,78,CN,1571550744,56,46.95,128.87,57.05,8.43
492,dunedin,100,NZ,1571550496,77,-45.87,170.5,53.01,13.0
493,kysyl-syr,85,RU,1571550745,77,63.9,122.77,31.15,1.88
494,namwala,0,ZM,1571550746,15,-15.75,26.45,80.6,3.98
495,quatre cocos,75,MU,1571550746,65,-20.21,57.76,78.01,13.87
496,paamiut,100,GL,1571550366,80,61.99,-49.67,41.52,8.81
497,buford,1,US,1571550747,51,32.46,-100.86,62.01,6.93
498,normandin,5,CA,1571550747,91,48.84,-72.53,32.0,5.82
499,souillac,100,FR,1571550748,100,45.6,-0.6,55.4,9.17
500,maraa,93,BR,1571550748,93,-1.83,-65.37,73.61,1.14
501,arlit,3,NE,1571550558,18,18.74,7.39,86.5,9.06
502,teberda,0,RU,1571550749,60,43.44,41.74,47.48,0.85
503,rawson,35,AR,1571550749,30,-43.3,-65.11,70.03,20.74
504,saurimo,100,AO,1571550749,79,-9.66,20.4,69.62,0.4
505,traverse city,90,US,1571550750,62,44.76,-85.62,55.4,12.59
506,bonthe,100,SL,1571550750,88,7.53,-12.5,77.05,2.93
507,ukiah,1,US,1571550750,81,39.15,-123.21,55.99,3.69
508,marsa matruh,42,EG,1571550463,62,31.35,27.25,76.37,6.33
509,aswan,0,EG,1571550570,23,24.09,32.9,82.92,11.3
510,haines junction,99,CA,1571550463,93,60.75,-137.51,23.28,1.79
511,kyshtovka,73,RU,1571550751,61,56.56,76.62,26.33,7.78
512,virginia beach,90,US,1571550331,87,36.85,-75.98,64.4,5.82
513,puerto narino,90,CO,1571550752,100,-3.77,-70.38,73.4,2.04
514,staunton,90,US,1571550752,93,38.15,-79.07,53.01,6.53
515,abyek,75,IR,1571550753,27,36.04,50.53,64.4,4.7
516,white rock,1,CA,1571550753,93,49.02,-122.8,50.0,4.7
517,ulaangom,100,MN,1571550753,36,49.98,92.07,42.13,4.65
518,valparaiso,90,US,1571550471,87,41.47,-87.06,59.0,6.04
519,petropavlovsk-kamchatskiy,0,RU,1571550754,36,53.05,158.65,44.6,8.95
520,zapolyarnyy,17,RU,1571550754,85,69.43,30.82,21.2,11.41
521,kloulklubed,75,PW,1571550755,70,7.04,134.26,86.0,3.36
522,taoudenni,0,ML,1571550433,24,22.68,-3.98,78.53,8.59
523,neryungri,34,RU,1571550755,91,56.66,124.71,34.84,7.18
524,hecun,0,CN,1571550755,39,29.94,119.31,71.43,4.74
525,santa cruz,44,BR,1571550756,89,-6.22,-36.02,68.07,6.6
526,innisfail,0,AU,1571550756,19,-17.52,146.03,88.0,4.0
527,sobolevo,100,RU,1571550756,87,54.43,31.9,51.02,6.8
528,henderson,20,US,1571550756,17,36.04,-114.98,69.8,4.7
529,portland,1,US,1571550667,86,43.66,-70.25,39.99,1.01
530,port-gentil,40,GA,1571550412,100,-0.72,8.78,75.2,8.5
531,corumba,93,BR,1571550757,98,-19.0,-57.65,68.75,3.27
532,vao,96,EE,1571550458,94,59.1,26.19,46.56,7.43
533,waipawa,19,NZ,1571550361,75,-39.94,176.59,57.99,7.0
534,prince rupert,90,CA,1571550483,81,54.32,-130.32,46.4,11.41
535,sile,1,US,1571550758,14,35.56,-106.37,57.0,6.93
536,tabory,100,PL,1571550758,89,53.89,19.53,52.0,9.22
537,fez,40,MA,1571550759,68,34.03,-5.02,64.4,13.87
538,pasir gudang,75,MY,1571550759,74,1.46,103.88,93.2,9.17
539,gidam,17,IN,1571550760,58,18.98,81.4,87.74,3.02
540,noumea,20,NC,1571550760,39,-22.28,166.46,84.2,11.41
541,minab,0,IR,1571550533,62,27.15,57.07,89.6,2.55
542,roma,0,IT,1571550760,82,41.89,12.48,63.0,3.36
543,maloy,92,ID,1571550761,70,1.0,118.1,88.5,2.13
544,kotelnikovo,0,RU,1571550761,77,47.63,43.14,57.56,10.13
545,teguise,20,ES,1571550761,88,29.06,-13.56,69.8,10.29
546,geri,1,CN,1571550762,29,35.67,100.55,49.46,4.81
547,luau,4,CD,1571550762,71,-10.7,22.23,73.38,2.95
548,loa janan,97,ID,1571550763,71,-0.58,117.09,86.28,3.8
549,xianyang,90,CN,1571550763,93,34.31,108.72,63.0,2.24
550,mahibadhoo,67,MV,1571550763,74,3.78,72.97,83.19,9.28
551,uri,0,IN,1571550764,30,34.09,74.03,61.8,1.83
552,chernyshevskiy,100,RU,1571550764,63,63.01,112.47,23.82,4.68
553,almeirim,43,BR,1571550764,96,-1.53,-52.58,72.71,3.22
554,mackay,20,CA,1571550765,74,53.65,-115.58,35.6,9.17
555,ayolas,85,PY,1571550565,71,-27.39,-56.84,58.89,8.81
556,kargil,1,PK,1571550765,21,34.56,76.13,36.12,1.41
557,lyuban,83,BY,1571550766,87,52.8,28.0,55.65,5.84
558,sumbe,97,AO,1571550767,87,-11.2,13.84,74.76,0.31
559,kabare,65,RW,1571550472,87,-1.65,29.38,63.35,0.87
560,tarauaca,99,BR,1571550767,94,-8.16,-70.77,69.58,0.76
561,tigre,0,AR,1571550767,67,-34.42,-58.58,60.8,12.75
562,uyovu,53,TZ,1571550768,68,-3.28,31.53,73.72,5.79
563,nanticoke,1,US,1571550768,81,41.21,-76.0,46.99,5.57
564,yar-sale,96,RU,1571550437,62,66.83,70.83,28.88,21.18
565,dukat,0,AL,1571550769,94,40.25,19.57,66.0,3.53
566,uvalde,1,US,1571550465,77,29.21,-99.79,75.2,6.93
567,riachao das neves,28,BR,1571550770,34,-11.75,-44.91,71.34,3.53
568,banda aceh,52,ID,1571550454,74,5.56,95.32,83.03,7.65
569,xining,50,CN,1571550771,48,36.62,101.77,45.68,6.93
570,gioia tauro,20,IT,1571550771,83,38.42,15.9,71.01,5.82
571,huilong,96,CN,1571550422,56,31.15,106.5,73.63,5.23
